var resto = {
"type": "FeatureCollection",
"name": "resto",
"crs": { "type": "name", "properties": { "name": "urn:ogc:def:crs:OGC:1.3:CRS84" } },
"features": [
{ "type": "Feature", "properties": { "osm_id": 414130096, "timestamp": null, "name": "McDonald's", "type": "fast_food" }, "geometry": { "type": "Point", "coordinates": [ -6.8473962, 33.9954722 ] } },
{ "type": "Feature", "properties": { "osm_id": 444381355, "timestamp": null, "name": "Pizza Hut", "type": "fast_food" }, "geometry": { "type": "Point", "coordinates": [ -6.8454694, 33.9982955 ] } },
{ "type": "Feature", "properties": { "osm_id": 527903419, "timestamp": null, "name": "Blue Berry", "type": "restaurant" }, "geometry": { "type": "Point", "coordinates": [ -6.829779, 34.0275671 ] } },
{ "type": "Feature", "properties": { "osm_id": 527903421, "timestamp": null, "name": "Venezia Ice", "type": "restaurant" }, "geometry": { "type": "Point", "coordinates": [ -6.829488, 34.0275296 ] } },
{ "type": "Feature", "properties": { "osm_id": 954684016, "timestamp": null, "name": "Coq Magic", "type": "restaurant" }, "geometry": { "type": "Point", "coordinates": [ -6.8276726, 34.0202844 ] } },
{ "type": "Feature", "properties": { "osm_id": 1153033252, "timestamp": null, "name": "Dar Naji", "type": "restaurant" }, "geometry": { "type": "Point", "coordinates": [ -6.8418268, 34.0216395 ] } },
{ "type": "Feature", "properties": { "osm_id": 1234613145, "timestamp": null, "name": "Pizza Hut", "type": "restaurant" }, "geometry": { "type": "Point", "coordinates": [ -6.8303753, 33.973573 ] } },
{ "type": "Feature", "properties": { "osm_id": 1655951266, "timestamp": null, "name": "Paul", "type": "cafe" }, "geometry": { "type": "Point", "coordinates": [ -6.8484591, 33.9895242 ] } },
{ "type": "Feature", "properties": { "osm_id": 1881125380, "timestamp": null, "name": "Yoka Sushi", "type": "restaurant" }, "geometry": { "type": "Point", "coordinates": [ -6.8495311, 34.0007669 ] } },
{ "type": "Feature", "properties": { "osm_id": -1865709704, "timestamp": null, "name": "KFC", "type": "fast_food" }, "geometry": { "type": "Point", "coordinates": [ -6.8474489, 33.994844 ] } },
{ "type": "Feature", "properties": { "osm_id": -1709574900, "timestamp": null, "name": "Cupidon", "type": "cafe" }, "geometry": { "type": "Point", "coordinates": [ -6.8247895, 34.0174456 ] } },
{ "type": "Feature", "properties": { "osm_id": -1445078138, "timestamp": null, "name": "Domino's Pizza", "type": "fast_food" }, "geometry": { "type": "Point", "coordinates": [ -6.8680298, 33.9604394 ] } },
{ "type": "Feature", "properties": { "osm_id": -884551754, "timestamp": null, "name": "Le Lingot D'or", "type": "cafe" }, "geometry": { "type": "Point", "coordinates": [ -6.8367366, 34.0209855 ] } },
{ "type": "Feature", "properties": { "osm_id": -871915817, "timestamp": null, "name": "Oliveri", "type": "cafe" }, "geometry": { "type": "Point", "coordinates": [ -6.8485156, 33.9976962 ] } },
{ "type": "Feature", "properties": { "osm_id": -860148556, "timestamp": null, "name": "La Rose Verte", "type": "cafe" }, "geometry": { "type": "Point", "coordinates": [ -6.8304182, 34.0243906 ] } },
{ "type": "Feature", "properties": { "osm_id": -858238987, "timestamp": null, "name": "La Terrazza", "type": "restaurant" }, "geometry": { "type": "Point", "coordinates": [ -6.8638351, 33.9534769 ] } },
{ "type": "Feature", "properties": { "osm_id": -594052199, "timestamp": null, "name": "Tacos de Lyon", "type": "fast_food" }, "geometry": { "type": "Point", "coordinates": [ -6.8448274, 34.0200706 ] } },
{ "type": "Feature", "properties": { "osm_id": -593962709, "timestamp": null, "name": "Venezia Ice", "type": "cafe" }, "geometry": { "type": "Point", "coordinates": [ -6.8481855, 33.9977697 ] } },
{ "type": "Feature", "properties": { "osm_id": -593962706, "timestamp": null, "name": "Terre de Glace", "type": "cafe" }, "geometry": { "type": "Point", "coordinates": [ -6.8499423, 34.0012609 ] } },
{ "type": "Feature", "properties": { "osm_id": -592847969, "timestamp": null, "name": "Coq Magic", "type": "restaurant" }, "geometry": { "type": "Point", "coordinates": [ -6.8507341, 34.0022176 ] } },
{ "type": "Feature", "properties": { "osm_id": -592847947, "timestamp": null, "name": "Pinchos", "type": "restaurant" }, "geometry": { "type": "Point", "coordinates": [ -6.8483053, 33.9977447 ] } },
{ "type": "Feature", "properties": { "osm_id": -589154907, "timestamp": null, "name": "La Graille", "type": "fast_food" }, "geometry": { "type": "Point", "coordinates": [ -6.8500014, 34.0028469 ] } },
{ "type": "Feature", "properties": { "osm_id": -372835546, "timestamp": null, "name": "Sushi Palace", "type": "restaurant" }, "geometry": { "type": "Point", "coordinates": [ -6.9430426, 33.9346265 ] } },
{ "type": "Feature", "properties": { "osm_id": -372835542, "timestamp": null, "name": "Domino's Pizza", "type": "restaurant" }, "geometry": { "type": "Point", "coordinates": [ -6.9428244, 33.9345945 ] } },
{ "type": "Feature", "properties": { "osm_id": -317397291, "timestamp": null, "name": "L'imperial", "type": "cafe" }, "geometry": { "type": "Point", "coordinates": [ -6.8486913, 33.9996923 ] } },
{ "type": "Feature", "properties": { "osm_id": -296852910, "timestamp": null, "name": "Sushi House", "type": "fast_food" }, "geometry": { "type": "Point", "coordinates": [ -6.848208, 33.9897439 ] } },
{ "type": "Feature", "properties": { "osm_id": -294648181, "timestamp": null, "name": "Quick", "type": "fast_food" }, "geometry": { "type": "Point", "coordinates": [ -6.8477997, 33.9954967 ] } },
{ "type": "Feature", "properties": { "osm_id": -294238322, "timestamp": null, "name": "La Grillardiere", "type": "restaurant" }, "geometry": { "type": "Point", "coordinates": [ -6.872866, 33.9581699 ] } },
{ "type": "Feature", "properties": { "osm_id": -294208181, "timestamp": null, "name": "La Piazza Verde", "type": "cafe" }, "geometry": { "type": "Point", "coordinates": [ -6.8726944, 33.9574329 ] } },
{ "type": "Feature", "properties": { "osm_id": 109568293, "timestamp": null, "name": "venezia ice", "type": "cafe" }, "geometry": { "type": "Point", "coordinates": [ -6.8665004, 33.9618678 ] } },
{ "type": "Feature", "properties": { "osm_id": 265828194, "timestamp": null, "name": "Café Des Lys", "type": "cafe" }, "geometry": { "type": "Point", "coordinates": [ -6.8472068, 34.0215465 ] } },
{ "type": "Feature", "properties": { "osm_id": 340113295, "timestamp": null, "name": "Villa My Pearl", "type": "cafe" }, "geometry": { "type": "Point", "coordinates": [ -6.8515759, 33.9884117 ] } },
{ "type": "Feature", "properties": { "osm_id": 845246022, "timestamp": null, "name": "Domino's Pizza", "type": "restaurant" }, "geometry": { "type": "Point", "coordinates": [ -6.8509776, 33.9893312 ] } },
{ "type": "Feature", "properties": { "osm_id": 851631625, "timestamp": null, "name": "Starbucks", "type": "cafe" }, "geometry": { "type": "Point", "coordinates": [ -6.8479807, 33.9957975 ] } },
{ "type": "Feature", "properties": { "osm_id": 1485151287, "timestamp": null, "name": "Bistrot Burger", "type": "restaurant" }, "geometry": { "type": "Point", "coordinates": [ -6.8462835, 34.0061223 ] } },
{ "type": "Feature", "properties": { "osm_id": 1487588101, "timestamp": null, "name": "Sushi Box", "type": "restaurant" }, "geometry": { "type": "Point", "coordinates": [ -6.8497382, 33.9956645 ] } },
{ "type": "Feature", "properties": { "osm_id": 1986588590, "timestamp": null, "name": "شوارما مازن الشام", "type": "restaurant" }, "geometry": { "type": "Point", "coordinates": [ -6.8468562, 34.0015073 ] } },
{ "type": "Feature", "properties": { "osm_id": -1610655423, "timestamp": null, "name": "Dipndip", "type": "cafe" }, "geometry": { "type": "Point", "coordinates": [ -6.8494191, 33.9541265 ] } },
{ "type": "Feature", "properties": { "osm_id": -1583281820, "timestamp": null, "name": "Be Wok", "type": "restaurant" }, "geometry": { "type": "Point", "coordinates": [ -6.8492639, 33.9938546 ] } },
{ "type": "Feature", "properties": { "osm_id": -1583259870, "timestamp": null, "name": "Campus Al Irfane", "type": "restaurant" }, "geometry": { "type": "Point", "coordinates": [ -6.8644706, 33.9815635 ] } },
{ "type": "Feature", "properties": { "osm_id": -281472975, "timestamp": null, "name": "Yamal Acham", "type": "restaurant" }, "geometry": { "type": "Point", "coordinates": [ -6.8509401, 34.0024606 ] } },
{ "type": "Feature", "properties": { "osm_id": -281472974, "timestamp": null, "name": "Clandestino", "type": "restaurant" }, "geometry": { "type": "Point", "coordinates": [ -6.8505314, 34.0021734 ] } },
{ "type": "Feature", "properties": { "osm_id": -201799775, "timestamp": null, "name": "مطعم سفره", "type": "restaurant" }, "geometry": { "type": "Point", "coordinates": [ -6.8304208, 34.0208301 ] } },
{ "type": "Feature", "properties": { "osm_id": -187987798, "timestamp": null, "name": "Restaurant Gardenia", "type": "restaurant" }, "geometry": { "type": "Point", "coordinates": [ -6.8474284, 33.9962299 ] } },
{ "type": "Feature", "properties": { "osm_id": -169645675, "timestamp": null, "name": "دار الناجي", "type": "restaurant" }, "geometry": { "type": "Point", "coordinates": [ -6.8956636, 33.9794775 ] } },
{ "type": "Feature", "properties": { "osm_id": -158194375, "timestamp": null, "name": "Maison Beyrouth", "type": "restaurant" }, "geometry": { "type": "Point", "coordinates": [ -6.8467198, 34.0013525 ] } },
{ "type": "Feature", "properties": { "osm_id": 16625282, "timestamp": null, "name": "MOOJOOD (موجود)", "type": "restaurant" }, "geometry": { "type": "Point", "coordinates": [ -6.8565175, 34.0008296 ] } },
{ "type": "Feature", "properties": { "osm_id": 16655044, "timestamp": null, "name": "Starbucks", "type": "cafe" }, "geometry": { "type": "Point", "coordinates": [ -6.8569114, 34.0005049 ] } },
{ "type": "Feature", "properties": { "osm_id": 193739865, "timestamp": null, "name": "Eat Néocantine", "type": "restaurant" }, "geometry": { "type": "Point", "coordinates": [ -6.868444, 33.9561737 ] } },
{ "type": "Feature", "properties": { "osm_id": 560087400, "timestamp": null, "name": "Lily Gourmet", "type": "cafe" }, "geometry": { "type": "Point", "coordinates": [ -6.8518641, 33.9901181 ] } },
{ "type": "Feature", "properties": { "osm_id": 1056972770, "timestamp": null, "name": "Little Mamma", "type": "restaurant" }, "geometry": { "type": "Point", "coordinates": [ -6.8677879, 33.9601509 ] } },
{ "type": "Feature", "properties": { "osm_id": 1133696317, "timestamp": null, "name": "Clay Oven", "type": "restaurant" }, "geometry": { "type": "Point", "coordinates": [ -6.8646302, 33.9616872 ] } },
{ "type": "Feature", "properties": { "osm_id": 1339104794, "timestamp": null, "name": "Boho", "type": "cafe" }, "geometry": { "type": "Point", "coordinates": [ -6.8369471, 34.0150951 ] } },
{ "type": "Feature", "properties": { "osm_id": 1357967337, "timestamp": null, "name": "Dunkin'", "type": "fast_food" }, "geometry": { "type": "Point", "coordinates": [ -6.8661585, 33.9624363 ] } }
]
};
